<?xml version="1.0" encoding="UTF-8"?>
<kml xmlns="http://earth.google.com/kml/2.1">
<Document><name>Travelling Two Geotagged Photos for 2010-10-10</name>
<description><![CDATA[Geotagged Images from our travels.]]></description>

<Placemark><name>Dog Free !?! :(</name>
<description><![CDATA[
<center><a href="http://farm5.static.flickr.com/4133/5074240992_618aa12de7_z.jpg" ><img alt="Dog Free !?! :(" src="http://farm5.static.flickr.com/4133/5074240992_618aa12de7_t.jpg"/></a></center>
<p></p>
]]></description>
<Point><coordinates>-74.017467,40.705125</coordinates></Point>
</Placemark>
<Placemark><name>Vibrams by the harbour</name>
<description><![CDATA[
<center><a href="http://farm5.static.flickr.com/4091/5074239756_614bf52a6f_z.jpg" ><img alt="Vibrams by the harbour" src="http://farm5.static.flickr.com/4091/5074239756_614bf52a6f_t.jpg"/></a></center>
<p></p>
]]></description>
<Point><coordinates>-74.0182,40.710252</coordinates></Point>
</Placemark>
<Placemark><name>Holding back the smile</name>
<description><![CDATA[
<center><a href="http://farm5.static.flickr.com/4090/5074238648_ce569df9a9_z.jpg" ><img alt="Holding back the smile" src="http://farm5.static.flickr.com/4090/5074238648_ce569df9a9_t.jpg"/></a></center>
<p></p>
]]></description>
<Point><coordinates>-74.015023,40.713608</coordinates></Point>
</Placemark>
<Placemark><name>Lonely Sailboat</name>
<description><![CDATA[
<center><a href="http://farm5.static.flickr.com/4104/5073640761_054e50bb53_z.jpg" ><img alt="Lonely Sailboat" src="http://farm5.static.flickr.com/4104/5073640761_054e50bb53_t.jpg"/></a></center>
<p></p>
]]></description>
<Point><coordinates>-74.015645,40.713172</coordinates></Point>
</Placemark>
<Placemark><name>DSC_3590</name>
<description><![CDATA[
<center><a href="http://farm5.static.flickr.com/4149/5074237080_9f460d07c2_z.jpg" ><img alt="DSC_3590" src="http://farm5.static.flickr.com/4149/5074237080_9f460d07c2_t.jpg"/></a></center>
<p></p>
]]></description>
<Point><coordinates>-74.015975,40.712713</coordinates></Point>
</Placemark>
<Placemark><name>DSC_3579</name>
<description><![CDATA[
<center><a href="http://farm5.static.flickr.com/4153/5074236456_5a418215dc_z.jpg" ><img alt="DSC_3579" src="http://farm5.static.flickr.com/4153/5074236456_5a418215dc_t.jpg"/></a></center>
<p></p>
]]></description>
<Point><coordinates>-74.015931,40.712861</coordinates></Point>
</Placemark>
<Placemark><name>By the harbour</name>
<description><![CDATA[
<center><a href="http://farm5.static.flickr.com/4128/5073638579_c1d560734c_z.jpg" ><img alt="By the harbour" src="http://farm5.static.flickr.com/4128/5073638579_c1d560734c_t.jpg"/></a></center>
<p></p>
]]></description>
<Point><coordinates>-74.016317,40.712877</coordinates></Point>
</Placemark>
<Placemark><name>Downtown Smoke Stack</name>
<description><![CDATA[
<center><a href="http://farm5.static.flickr.com/4126/5074233864_d8f1511e3e_z.jpg" ><img alt="Downtown Smoke Stack" src="http://farm5.static.flickr.com/4126/5074233864_d8f1511e3e_t.jpg"/></a></center>
<p></p>
]]></description>
<Point><coordinates>-74.008556,40.705563</coordinates></Point>
</Placemark>
<Placemark><name>Walking through the metro station</name>
<description><![CDATA[
<center><a href="http://farm5.static.flickr.com/4147/5074232900_4481e78dc6_z.jpg" ><img alt="Walking through the metro station" src="http://farm5.static.flickr.com/4147/5074232900_4481e78dc6_t.jpg"/></a></center>
<p></p>
]]></description>
<Point><coordinates>-74.014489,40.703869</coordinates></Point>
</Placemark>
<Placemark><name>NYC Metro Bench</name>
<description><![CDATA[
<center><a href="http://farm5.static.flickr.com/4129/5074231974_c39196ec1e_z.jpg" ><img alt="NYC Metro Bench" src="http://farm5.static.flickr.com/4129/5074231974_c39196ec1e_t.jpg"/></a></center>
<p></p>
]]></description>
<Point><coordinates>-74.014489,40.703869</coordinates></Point>
</Placemark>
<Placemark><name>NYC Metro Escalator</name>
<description><![CDATA[
<center><a href="http://farm5.static.flickr.com/4108/5074230982_d0d4d3c972_z.jpg" ><img alt="NYC Metro Escalator" src="http://farm5.static.flickr.com/4108/5074230982_d0d4d3c972_t.jpg"/></a></center>
<p></p>
]]></description>
<Point><coordinates>-74.014489,40.703869</coordinates></Point>
</Placemark>
<Placemark><name>Yummy Coconut Water</name>
<description><![CDATA[
<center><a href="http://farm5.static.flickr.com/4106/5073633189_dd2052fa73_z.jpg" ><img alt="Yummy Coconut Water" src="http://farm5.static.flickr.com/4106/5073633189_dd2052fa73_t.jpg"/></a></center>
<p></p>
]]></description>
<Point><coordinates>-74.026331,40.685916</coordinates></Point>
</Placemark>
<Placemark><name>"Finishing"</name>
<description><![CDATA[
<center><a href="http://farm5.static.flickr.com/4112/5073632341_77a1933bee_z.jpg" ><img alt=""Finishing"" src="http://farm5.static.flickr.com/4112/5073632341_77a1933bee_t.jpg"/></a></center>
<p>&quot;Finishing&quot; the first ever NYC Barefoot Run! </p>
]]></description>
<Point><coordinates>-74.026331,40.685916</coordinates></Point>
</Placemark>
<Placemark><name>Everyone's ready to go</name>
<description><![CDATA[
<center><a href="http://farm5.static.flickr.com/4149/5073631425_a61451cb48_z.jpg" ><img alt="Everyone's ready to go" src="http://farm5.static.flickr.com/4149/5073631425_a61451cb48_t.jpg"/></a></center>
<p></p>
]]></description>
<Point><coordinates>-74.026412,40.685775</coordinates></Point>
</Placemark>
<Placemark><name>Durant prepping everyone for the race</name>
<description><![CDATA[
<center><a href="http://farm5.static.flickr.com/4149/5074227984_1de8e4de54_z.jpg" ><img alt="Durant prepping everyone for the race" src="http://farm5.static.flickr.com/4149/5074227984_1de8e4de54_t.jpg"/></a></center>
<p></p>
]]></description>
<Point><coordinates>-74.026434,40.68588</coordinates></Point>
</Placemark>
<Placemark><name>Lots of bare feet!</name>
<description><![CDATA[
<center><a href="http://farm5.static.flickr.com/4105/5074227270_50bfbfb1c7_z.jpg" ><img alt="Lots of bare feet!" src="http://farm5.static.flickr.com/4105/5074227270_50bfbfb1c7_t.jpg"/></a></center>
<p></p>
]]></description>
<Point><coordinates>-74.026312,40.685861</coordinates></Point>
</Placemark>
<Placemark><name>Almost Race Time</name>
<description><![CDATA[
<center><a href="http://farm5.static.flickr.com/4147/5074226420_eb202a86b3_z.jpg" ><img alt="Almost Race Time" src="http://farm5.static.flickr.com/4147/5074226420_eb202a86b3_t.jpg"/></a></center>
<p></p>
]]></description>
<Point><coordinates>-74.026362,40.685847</coordinates></Point>
</Placemark>
<Placemark><name>Me and Mom</name>
<description><![CDATA[
<center><a href="http://farm5.static.flickr.com/4092/5074225352_d16d593e59_z.jpg" ><img alt="Me and Mom" src="http://farm5.static.flickr.com/4092/5074225352_d16d593e59_t.jpg"/></a></center>
<p></p>
]]></description>
<Point><coordinates>-74.026153,40.686249</coordinates></Point>
</Placemark>
<Placemark><name>Walking to the starting line</name>
<description><![CDATA[
<center><a href="http://farm5.static.flickr.com/4110/5073627375_6e0bd716b2_z.jpg" ><img alt="Walking to the starting line" src="http://farm5.static.flickr.com/4110/5073627375_6e0bd716b2_t.jpg"/></a></center>
<p></p>
]]></description>
<Point><coordinates>-74.018898,40.693108</coordinates></Point>
</Placemark>
<Placemark><name>On the ferry to Governor's Island</name>
<description><![CDATA[
<center><a href="http://farm5.static.flickr.com/4151/5074223198_8fbc4ee26f_z.jpg" ><img alt="On the ferry to Governor's Island" src="http://farm5.static.flickr.com/4151/5074223198_8fbc4ee26f_t.jpg"/></a></center>
<p></p>
]]></description>
<Point><coordinates>-74.011653,40.697977</coordinates></Point>
</Placemark>
<Placemark><name>Beautiful NYC Metro Ceiling</name>
<description><![CDATA[
<center><a href="http://farm5.static.flickr.com/4132/5074222384_ddf0426fde_z.jpg" ><img alt="Beautiful NYC Metro Ceiling" src="http://farm5.static.flickr.com/4132/5074222384_ddf0426fde_t.jpg"/></a></center>
<p></p>
]]></description>
<Point><coordinates>-74.013367,40.701961</coordinates></Point>
</Placemark></Document></kml>
