<?xml version="1.0" encoding="UTF-8"?>
<kml xmlns="http://earth.google.com/kml/2.1">
<Document><name>Travelling Two Geotagged Photos for [[DATE]]</name>
<description><![CDATA[Geotagged Images from our travels.]]></description>

<Placemark><name>Ready To Go!</name>
<description><![CDATA[
<center><a href="http://farm6.static.flickr.com/5283/5336937748_f29e312828_z.jpg" ><img alt="Ready To Go!" src="http://farm6.static.flickr.com/5283/5336937748_f29e312828_m.jpg"/></a></center>
<p></p>
]]></description>
<Point><coordinates>-0.346014,39.456836</coordinates></Point>
</Placemark>
<Placemark><name>On the Bus</name>
<description><![CDATA[
<center><a href="http://farm6.static.flickr.com/5005/5336323609_e872db5e91_z.jpg" ><img alt="On the Bus" src="http://farm6.static.flickr.com/5005/5336323609_e872db5e91_m.jpg"/></a></center>
<p></p>
]]></description>
<Point><coordinates>-0.346014,39.456836</coordinates></Point>
</Placemark>
<Placemark><name>In Valencia!</name>
<description><![CDATA[
<center><a href="http://farm6.static.flickr.com/5170/5336937042_dd5f63194a_z.jpg" ><img alt="In Valencia!" src="http://farm6.static.flickr.com/5170/5336937042_dd5f63194a_m.jpg"/></a></center>
<p></p>
]]></description>
<Point><coordinates>-0.376912,39.470283</coordinates></Point>
</Placemark>
<Placemark><name>Postcard Shoping</name>
<description><![CDATA[
<center><a href="http://farm6.static.flickr.com/5050/5336322819_bb0e7e3709_z.jpg" ><img alt="Postcard Shoping" src="http://farm6.static.flickr.com/5050/5336322819_bb0e7e3709_m.jpg"/></a></center>
<p></p>
]]></description>
<Point><coordinates>-0.376764,39.470727</coordinates></Point>
</Placemark>
<Placemark><name>The Girls</name>
<description><![CDATA[
<center><a href="http://farm6.static.flickr.com/5043/5336936226_9d4a520bfc_z.jpg" ><img alt="The Girls" src="http://farm6.static.flickr.com/5043/5336936226_9d4a520bfc_m.jpg"/></a></center>
<p></p>
]]></description>
<Point><coordinates>-0.375842,39.473433</coordinates></Point>
</Placemark>
<Placemark><name>Self-Guided Tour Path....sort of</name>
<description><![CDATA[
<center><a href="http://farm6.static.flickr.com/5202/5336935760_430b754842_z.jpg" ><img alt="Self-Guided Tour Path....sort of" src="http://farm6.static.flickr.com/5202/5336935760_430b754842_m.jpg"/></a></center>
<p></p>
]]></description>
<Point><coordinates>-0.376548,39.47285</coordinates></Point>
</Placemark>
<Placemark><name>DSC_5579</name>
<description><![CDATA[
<center><a href="http://farm6.static.flickr.com/5083/5336321611_6bcf53c0d8_z.jpg" ><img alt="DSC_5579" src="http://farm6.static.flickr.com/5083/5336321611_6bcf53c0d8_m.jpg"/></a></center>
<p></p>
]]></description>
<Point><coordinates>-0.3756,39.475041</coordinates></Point>
</Placemark>
<Placemark><name>DSC_5584</name>
<description><![CDATA[
<center><a href="http://farm6.static.flickr.com/5001/5336934824_5e2a7e29a2_z.jpg" ><img alt="DSC_5584" src="http://farm6.static.flickr.com/5001/5336934824_5e2a7e29a2_m.jpg"/></a></center>
<p></p>
]]></description>
<Point><coordinates>-0.375475,39.47523</coordinates></Point>
</Placemark>
<Placemark><name>DSC_5586</name>
<description><![CDATA[
<center><a href="http://farm6.static.flickr.com/5164/5336934354_92118da113_z.jpg" ><img alt="DSC_5586" src="http://farm6.static.flickr.com/5164/5336934354_92118da113_m.jpg"/></a></center>
<p></p>
]]></description>
<Point><coordinates>-0.375267,39.475583</coordinates></Point>
</Placemark>
<Placemark><name>Cathedral in Valencia</name>
<description><![CDATA[
<center><a href="http://farm6.static.flickr.com/5045/5336933648_c6b3e044a9_z.jpg" ><img alt="Cathedral in Valencia" src="http://farm6.static.flickr.com/5045/5336933648_c6b3e044a9_m.jpg"/></a></center>
<p></p>
]]></description>
<Point><coordinates>-0.375164,39.475411</coordinates></Point>
</Placemark>
<Placemark><name>Faces</name>
<description><![CDATA[
<center><a href="http://farm6.static.flickr.com/5081/5336933170_3bfa9536da_z.jpg" ><img alt="Faces" src="http://farm6.static.flickr.com/5081/5336933170_3bfa9536da_m.jpg"/></a></center>
<p></p>
]]></description>
<Point><coordinates>-0.374945,39.475036</coordinates></Point>
</Placemark>
<Placemark><name>Creepy Little Guy</name>
<description><![CDATA[
<center><a href="http://farm6.static.flickr.com/5250/5336318881_43b7492a78_z.jpg" ><img alt="Creepy Little Guy" src="http://farm6.static.flickr.com/5250/5336318881_43b7492a78_m.jpg"/></a></center>
<p></p>
]]></description>
<Point><coordinates>-0.374945,39.475036</coordinates></Point>
</Placemark>
<Placemark><name>DSC_5608</name>
<description><![CDATA[
<center><a href="http://farm6.static.flickr.com/5170/5336318507_523d66f87a_z.jpg" ><img alt="DSC_5608" src="http://farm6.static.flickr.com/5170/5336318507_523d66f87a_m.jpg"/></a></center>
<p></p>
]]></description>
<Point><coordinates>-0.374812,39.475588</coordinates></Point>
</Placemark>
<Placemark><name>The room that houses the supposed chalice from the last supper</name>
<description><![CDATA[
<center><a href="http://farm6.static.flickr.com/5284/5336317951_2f334ddd77_z.jpg" ><img alt="The room that houses the supposed chalice from the last supper" src="http://farm6.static.flickr.com/5284/5336317951_2f334ddd77_m.jpg"/></a></center>
<p></p>
]]></description>
<Point><coordinates>-0.377059,39.474966</coordinates></Point>
</Placemark>
<Placemark><name>DSC_5625</name>
<description><![CDATA[
<center><a href="http://farm6.static.flickr.com/5004/5336317553_7e6c7a8171_z.jpg" ><img alt="DSC_5625" src="http://farm6.static.flickr.com/5004/5336317553_7e6c7a8171_m.jpg"/></a></center>
<p></p>
]]></description>
<Point><coordinates>-0.377059,39.474966</coordinates></Point>
</Placemark>
<Placemark><name>Altar housing the chalice</name>
<description><![CDATA[
<center><a href="http://farm6.static.flickr.com/5209/5336317143_ec6a0a55bd_z.jpg" ><img alt="Altar housing the chalice" src="http://farm6.static.flickr.com/5209/5336317143_ec6a0a55bd_m.jpg"/></a></center>
<p></p>
]]></description>
<Point><coordinates>-0.377059,39.474966</coordinates></Point>
</Placemark>
<Placemark><name>Shops outside the cathedral</name>
<description><![CDATA[
<center><a href="http://farm6.static.flickr.com/5281/5336929872_e0b859bf55_z.jpg" ><img alt="Shops outside the cathedral" src="http://farm6.static.flickr.com/5281/5336929872_e0b859bf55_m.jpg"/></a></center>
<p></p>
]]></description>
<Point><coordinates>-0.375414,39.474936</coordinates></Point>
</Placemark>
<Placemark><name>Shops outside the cathedral</name>
<description><![CDATA[
<center><a href="http://farm6.static.flickr.com/5129/5336929564_5abc229f88_z.jpg" ><img alt="Shops outside the cathedral" src="http://farm6.static.flickr.com/5129/5336929564_5abc229f88_m.jpg"/></a></center>
<p></p>
]]></description>
<Point><coordinates>-0.375356,39.474966</coordinates></Point>
</Placemark>
<Placemark><name>Shops outside the cathedral</name>
<description><![CDATA[
<center><a href="http://farm6.static.flickr.com/5284/5336315255_422df79320_z.jpg" ><img alt="Shops outside the cathedral" src="http://farm6.static.flickr.com/5284/5336315255_422df79320_m.jpg"/></a></center>
<p></p>
]]></description>
<Point><coordinates>-0.375237,39.474958</coordinates></Point>
</Placemark>
<Placemark><name>Trying to figure out where to go next at a random table</name>
<description><![CDATA[
<center><a href="http://farm6.static.flickr.com/5049/5336314919_ffeb4193a0_z.jpg" ><img alt="Trying to figure out where to go next at a random table" src="http://farm6.static.flickr.com/5049/5336314919_ffeb4193a0_m.jpg"/></a></center>
<p></p>
]]></description>
<Point><coordinates>-0.375237,39.474958</coordinates></Point>
</Placemark>
<Placemark><name>Violinists in a plaza</name>
<description><![CDATA[
<center><a href="http://farm6.static.flickr.com/5082/5336928544_23b24896a0_z.jpg" ><img alt="Violinists in a plaza" src="http://farm6.static.flickr.com/5082/5336928544_23b24896a0_m.jpg"/></a></center>
<p></p>
]]></description>
<Point><coordinates>-0.375139,39.476063</coordinates></Point>
</Placemark>
<Placemark><name>Near the entranceway to a cathedral</name>
<description><![CDATA[
<center><a href="http://farm6.static.flickr.com/5282/5336314009_1e5b46f0de_z.jpg" ><img alt="Near the entranceway to a cathedral" src="http://farm6.static.flickr.com/5282/5336314009_1e5b46f0de_m.jpg"/></a></center>
<p></p>
]]></description>
<Point><coordinates>-0.375189,39.476461</coordinates></Point>
</Placemark>
<Placemark><name>Water Fountain in Valencia</name>
<description><![CDATA[
<center><a href="http://farm6.static.flickr.com/5090/5336927716_ea3ebe03fd_z.jpg" ><img alt="Water Fountain in Valencia" src="http://farm6.static.flickr.com/5090/5336927716_ea3ebe03fd_m.jpg"/></a></center>
<p></p>
]]></description>
<Point><coordinates>-0.375681,39.476722</coordinates></Point>
</Placemark>
<Placemark><name>Water Fountain in Valencia</name>
<description><![CDATA[
<center><a href="http://farm6.static.flickr.com/5006/5336313079_d7c534f597_z.jpg" ><img alt="Water Fountain in Valencia" src="http://farm6.static.flickr.com/5006/5336313079_d7c534f597_m.jpg"/></a></center>
<p></p>
]]></description>
<Point><coordinates>-0.37565,39.476422</coordinates></Point>
</Placemark>
<Placemark><name>Angelle looks so happy</name>
<description><![CDATA[
<center><a href="http://farm6.static.flickr.com/5046/5336312647_967d7dfaf1_z.jpg" ><img alt="Angelle looks so happy" src="http://farm6.static.flickr.com/5046/5336312647_967d7dfaf1_m.jpg"/></a></center>
<p></p>
]]></description>
<Point><coordinates>-0.375487,39.476252</coordinates></Point>
</Placemark>
<Placemark><name>Pidgeons in the plaza</name>
<description><![CDATA[
<center><a href="http://farm6.static.flickr.com/5165/5336926470_e444889514_z.jpg" ><img alt="Pidgeons in the plaza" src="http://farm6.static.flickr.com/5165/5336926470_e444889514_m.jpg"/></a></center>
<p></p>
]]></description>
<Point><coordinates>-0.375545,39.476394</coordinates></Point>
</Placemark>
<Placemark><name>Pidgeons in the plaza</name>
<description><![CDATA[
<center><a href="http://farm6.static.flickr.com/5243/5336926058_ed5c94b913_z.jpg" ><img alt="Pidgeons in the plaza" src="http://farm6.static.flickr.com/5243/5336926058_ed5c94b913_m.jpg"/></a></center>
<p></p>
]]></description>
<Point><coordinates>-0.375478,39.476452</coordinates></Point>
</Placemark>
<Placemark><name>Cool Door Knocker</name>
<description><![CDATA[
<center><a href="http://farm6.static.flickr.com/5162/5336311477_8bb9c4611e_z.jpg" ><img alt="Cool Door Knocker" src="http://farm6.static.flickr.com/5162/5336311477_8bb9c4611e_m.jpg"/></a></center>
<p></p>
]]></description>
<Point><coordinates>-0.375803,39.47645</coordinates></Point>
</Placemark>
<Placemark><name>Walkin' the streets</name>
<description><![CDATA[
<center><a href="http://farm6.static.flickr.com/5164/5336925400_963f6d3639_z.jpg" ><img alt="Walkin' the streets" src="http://farm6.static.flickr.com/5164/5336925400_963f6d3639_m.jpg"/></a></center>
<p></p>
]]></description>
<Point><coordinates>-0.376459,39.476747</coordinates></Point>
</Placemark>
<Placemark><name>Angelle strolling the streets</name>
<description><![CDATA[
<center><a href="http://farm6.static.flickr.com/5248/5336310391_a7fffd9cd4_z.jpg" ><img alt="Angelle strolling the streets" src="http://farm6.static.flickr.com/5248/5336310391_a7fffd9cd4_m.jpg"/></a></center>
<p></p>
]]></description>
<Point><coordinates>-0.379434,39.476547</coordinates></Point>
</Placemark>
<Placemark><name>Clay Bowls at the market</name>
<description><![CDATA[
<center><a href="http://farm6.static.flickr.com/5127/5336309971_b144cbb150_z.jpg" ><img alt="Clay Bowls at the market" src="http://farm6.static.flickr.com/5127/5336309971_b144cbb150_m.jpg"/></a></center>
<p></p>
]]></description>
<Point><coordinates>-0.379175,39.474022</coordinates></Point>
</Placemark>
<Placemark><name>Valencia Market</name>
<description><![CDATA[
<center><a href="http://farm6.static.flickr.com/5089/5336309481_f0b9942bef_z.jpg" ><img alt="Valencia Market" src="http://farm6.static.flickr.com/5089/5336309481_f0b9942bef_m.jpg"/></a></center>
<p></p>
]]></description>
<Point><coordinates>-0.379237,39.473941</coordinates></Point>
</Placemark>
<Placemark><name>Shrimp at the market</name>
<description><![CDATA[
<center><a href="http://farm6.static.flickr.com/5170/5336308875_4e6f99a1f1_z.jpg" ><img alt="Shrimp at the market" src="http://farm6.static.flickr.com/5170/5336308875_4e6f99a1f1_m.jpg"/></a></center>
<p></p>
]]></description>
<Point><coordinates>-0.379087,39.473819</coordinates></Point>
</Placemark>
<Placemark><name>Fish at the market</name>
<description><![CDATA[
<center><a href="http://farm6.static.flickr.com/5090/5336308479_1b084b7b9d_z.jpg" ><img alt="Fish at the market" src="http://farm6.static.flickr.com/5090/5336308479_1b084b7b9d_m.jpg"/></a></center>
<p></p>
]]></description>
<Point><coordinates>-0.379087,39.473819</coordinates></Point>
</Placemark>
<Placemark><name>Snacks galore</name>
<description><![CDATA[
<center><a href="http://farm6.static.flickr.com/5166/5336308109_62e448a447_z.jpg" ><img alt="Snacks galore" src="http://farm6.static.flickr.com/5166/5336308109_62e448a447_m.jpg"/></a></center>
<p></p>
]]></description>
<Point><coordinates>-0.37915,39.473547</coordinates></Point>
</Placemark>
<Placemark><name>Apples</name>
<description><![CDATA[
<center><a href="http://farm6.static.flickr.com/5203/5336307759_e221756ae1_z.jpg" ><img alt="Apples" src="http://farm6.static.flickr.com/5203/5336307759_e221756ae1_m.jpg"/></a></center>
<p></p>
]]></description>
<Point><coordinates>-0.379253,39.473466</coordinates></Point>
</Placemark>
<Placemark><name>Not sure what this is....at the market</name>
<description><![CDATA[
<center><a href="http://farm6.static.flickr.com/5041/5336307347_33e95c9a22_z.jpg" ><img alt="Not sure what this is....at the market" src="http://farm6.static.flickr.com/5041/5336307347_33e95c9a22_m.jpg"/></a></center>
<p></p>
]]></description>
<Point><coordinates>-0.37927,39.473266</coordinates></Point>
</Placemark>
<Placemark><name>Romain at the market</name>
<description><![CDATA[
<center><a href="http://farm6.static.flickr.com/5287/5336306997_4e417b7a5e_z.jpg" ><img alt="Romain at the market" src="http://farm6.static.flickr.com/5287/5336306997_4e417b7a5e_m.jpg"/></a></center>
<p></p>
]]></description>
<Point><coordinates>-0.37927,39.473266</coordinates></Point>
</Placemark>
<Placemark><name>The Valencia Market</name>
<description><![CDATA[
<center><a href="http://farm6.static.flickr.com/5083/5336920996_70366515cb_z.jpg" ><img alt="The Valencia Market" src="http://farm6.static.flickr.com/5083/5336920996_70366515cb_m.jpg"/></a></center>
<p></p>
]]></description>
<Point><coordinates>-0.378817,39.473075</coordinates></Point>
</Placemark>
<Placemark><name>Mercat Central in Valencia</name>
<description><![CDATA[
<center><a href="http://farm6.static.flickr.com/5010/5336920356_b4a032e557_z.jpg" ><img alt="Mercat Central in Valencia" src="http://farm6.static.flickr.com/5010/5336920356_b4a032e557_m.jpg"/></a></center>
<p></p>
]]></description>
<Point><coordinates>-0.37865,39.472994</coordinates></Point>
</Placemark>
<Placemark><name>DSC_5718</name>
<description><![CDATA[
<center><a href="http://farm6.static.flickr.com/5203/5336919854_c2b7818a8b_z.jpg" ><img alt="DSC_5718" src="http://farm6.static.flickr.com/5203/5336919854_c2b7818a8b_m.jpg"/></a></center>
<p></p>
]]></description>
<Point><coordinates>-0.378248,39.472877</coordinates></Point>
</Placemark>
<Placemark><name>Bike Rentals in Valencia</name>
<description><![CDATA[
<center><a href="http://farm6.static.flickr.com/5208/5336304717_e88130d9ed_z.jpg" ><img alt="Bike Rentals in Valencia" src="http://farm6.static.flickr.com/5208/5336304717_e88130d9ed_m.jpg"/></a></center>
<p></p>
]]></description>
<Point><coordinates>-0.376659,39.471261</coordinates></Point>
</Placemark>
<Placemark><name>Bull Ring was closed</name>
<description><![CDATA[
<center><a href="http://farm6.static.flickr.com/5281/5336918862_260b927dcc_z.jpg" ><img alt="Bull Ring was closed" src="http://farm6.static.flickr.com/5281/5336918862_260b927dcc_m.jpg"/></a></center>
<p></p>
]]></description>
<Point><coordinates>-0.375956,39.467311</coordinates></Point>
</Placemark>
<Placemark><name>DSC_5726</name>
<description><![CDATA[
<center><a href="http://farm6.static.flickr.com/5084/5336918632_6f2d3eb83a_z.jpg" ><img alt="DSC_5726" src="http://farm6.static.flickr.com/5084/5336918632_6f2d3eb83a_m.jpg"/></a></center>
<p></p>
]]></description>
<Point><coordinates>-0.376031,39.467388</coordinates></Point>
</Placemark>
<Placemark><name>Good prices on lunch!</name>
<description><![CDATA[
<center><a href="http://farm6.static.flickr.com/5127/5336303671_7ffae23139_z.jpg" ><img alt="Good prices on lunch!" src="http://farm6.static.flickr.com/5127/5336303671_7ffae23139_m.jpg"/></a></center>
<p></p>
]]></description>
<Point><coordinates>-0.385651,39.471083</coordinates></Point>
</Placemark>
<Placemark><name>DSC_5732</name>
<description><![CDATA[
<center><a href="http://farm6.static.flickr.com/5050/5336917652_afc267acc0_z.jpg" ><img alt="DSC_5732" src="http://farm6.static.flickr.com/5050/5336917652_afc267acc0_m.jpg"/></a></center>
<p></p>
]]></description>
<Point><coordinates>-0.385287,39.47155</coordinates></Point>
</Placemark>
<Placemark><name>DSC_5733</name>
<description><![CDATA[
<center><a href="http://farm6.static.flickr.com/5087/5336302801_bed69ab238_z.jpg" ><img alt="DSC_5733" src="http://farm6.static.flickr.com/5087/5336302801_bed69ab238_m.jpg"/></a></center>
<p></p>
]]></description>
<Point><coordinates>-0.385287,39.47155</coordinates></Point>
</Placemark>
<Placemark><name>DSC_5734</name>
<description><![CDATA[
<center><a href="http://farm6.static.flickr.com/5125/5336916836_55c25e2198_z.jpg" ><img alt="DSC_5734" src="http://farm6.static.flickr.com/5125/5336916836_55c25e2198_m.jpg"/></a></center>
<p></p>
]]></description>
<Point><coordinates>-0.3859,39.471575</coordinates></Point>
</Placemark>
<Placemark><name>DSC_5735</name>
<description><![CDATA[
<center><a href="http://farm6.static.flickr.com/5207/5336301789_7e1976a656_z.jpg" ><img alt="DSC_5735" src="http://farm6.static.flickr.com/5207/5336301789_7e1976a656_m.jpg"/></a></center>
<p></p>
]]></description>
<Point><coordinates>-0.3859,39.471575</coordinates></Point>
</Placemark>
<Placemark><name>DSC_5739</name>
<description><![CDATA[
<center><a href="http://farm6.static.flickr.com/5245/5336915844_0aa010f824_z.jpg" ><img alt="DSC_5739" src="http://farm6.static.flickr.com/5245/5336915844_0aa010f824_m.jpg"/></a></center>
<p></p>
]]></description>
<Point><coordinates>-0.383906,39.475808</coordinates></Point>
</Placemark>
<Placemark><name>Double Decker on narrow street</name>
<description><![CDATA[
<center><a href="http://farm6.static.flickr.com/5207/5336300851_c7013a4ee5_z.jpg" ><img alt="Double Decker on narrow street" src="http://farm6.static.flickr.com/5207/5336300851_c7013a4ee5_m.jpg"/></a></center>
<p></p>
]]></description>
<Point><coordinates>-0.383195,39.475897</coordinates></Point>
</Placemark>
<Placemark><name>Happy Graffiti</name>
<description><![CDATA[
<center><a href="http://farm6.static.flickr.com/5242/5336300345_475a3d0995_z.jpg" ><img alt="Happy Graffiti" src="http://farm6.static.flickr.com/5242/5336300345_475a3d0995_m.jpg"/></a></center>
<p></p>
]]></description>
<Point><coordinates>-0.382753,39.475908</coordinates></Point>
</Placemark>
<Placemark><name>Nice Door Knocker</name>
<description><![CDATA[
<center><a href="http://farm6.static.flickr.com/5041/5336299851_1b4be1fe2f_z.jpg" ><img alt="Nice Door Knocker" src="http://farm6.static.flickr.com/5041/5336299851_1b4be1fe2f_m.jpg"/></a></center>
<p></p>
]]></description>
<Point><coordinates>-0.373175,39.476191</coordinates></Point>
</Placemark>
<Placemark><name>Quiet Valencia Side Street</name>
<description><![CDATA[
<center><a href="http://farm6.static.flickr.com/5283/5336299391_da81d6f46b_z.jpg" ><img alt="Quiet Valencia Side Street" src="http://farm6.static.flickr.com/5283/5336299391_da81d6f46b_m.jpg"/></a></center>
<p></p>
]]></description>
<Point><coordinates>-0.372084,39.476094</coordinates></Point>
</Placemark>
<Placemark><name>Orange Trees right in down town along the mall</name>
<description><![CDATA[
<center><a href="http://farm6.static.flickr.com/5165/5336298861_8b4187b8d1_z.jpg" ><img alt="Orange Trees right in down town along the mall" src="http://farm6.static.flickr.com/5165/5336298861_8b4187b8d1_m.jpg"/></a></center>
<p></p>
]]></description>
<Point><coordinates>-0.370842,39.476947</coordinates></Point>
</Placemark>
<Placemark><name>DSC_5756</name>
<description><![CDATA[
<center><a href="http://farm6.static.flickr.com/5162/5336298371_1f05aca05c_z.jpg" ><img alt="DSC_5756" src="http://farm6.static.flickr.com/5162/5336298371_1f05aca05c_m.jpg"/></a></center>
<p></p>
]]></description>
<Point><coordinates>-0.371006,39.477061</coordinates></Point>
</Placemark>
<Placemark><name>Towards the gate</name>
<description><![CDATA[
<center><a href="http://farm6.static.flickr.com/5083/5336912504_c9ba948486_z.jpg" ><img alt="Towards the gate" src="http://farm6.static.flickr.com/5083/5336912504_c9ba948486_m.jpg"/></a></center>
<p></p>
]]></description>
<Point><coordinates>-0.372492,39.477916</coordinates></Point>
</Placemark>
<Placemark><name>An old gateway into valencia</name>
<description><![CDATA[
<center><a href="http://farm6.static.flickr.com/5288/5336912062_cc188698fc_z.jpg" ><img alt="An old gateway into valencia" src="http://farm6.static.flickr.com/5288/5336912062_cc188698fc_m.jpg"/></a></center>
<p></p>
]]></description>
<Point><coordinates>-0.375992,39.479444</coordinates></Point>
</Placemark>
<Placemark><name>DSC_5770</name>
<description><![CDATA[
<center><a href="http://farm6.static.flickr.com/5083/5336297247_ac8a9050be_z.jpg" ><img alt="DSC_5770" src="http://farm6.static.flickr.com/5083/5336297247_ac8a9050be_m.jpg"/></a></center>
<p></p>
]]></description>
<Point><coordinates>-0.376064,39.479225</coordinates></Point>
</Placemark>
<Placemark><name>DSC_5772</name>
<description><![CDATA[
<center><a href="http://farm6.static.flickr.com/5167/5336911236_b6c130b414_z.jpg" ><img alt="DSC_5772" src="http://farm6.static.flickr.com/5167/5336911236_b6c130b414_m.jpg"/></a></center>
<p></p>
]]></description>
<Point><coordinates>-0.37607,39.479202</coordinates></Point>
</Placemark>
<Placemark><name>Old wooden doors of the gate</name>
<description><![CDATA[
<center><a href="http://farm6.static.flickr.com/5084/5336910764_f318e6b272_z.jpg" ><img alt="Old wooden doors of the gate" src="http://farm6.static.flickr.com/5084/5336910764_f318e6b272_m.jpg"/></a></center>
<p></p>
]]></description>
<Point><coordinates>-0.376262,39.479013</coordinates></Point>
</Placemark>
<Placemark><name>Takin' the #1 Home</name>
<description><![CDATA[
<center><a href="http://farm6.static.flickr.com/5202/5336295795_276ac67065_z.jpg" ><img alt="Takin' the #1 Home" src="http://farm6.static.flickr.com/5202/5336295795_276ac67065_m.jpg"/></a></center>
<p></p>
]]></description>
<Point><coordinates>-0.374712,39.47963</coordinates></Point>
</Placemark>
<Placemark><name>Valencia Bus Map</name>
<description><![CDATA[
<center><a href="http://farm6.static.flickr.com/5128/5336909686_4d88fd041f_z.jpg" ><img alt="Valencia Bus Map" src="http://farm6.static.flickr.com/5128/5336909686_4d88fd041f_m.jpg"/></a></center>
<p></p>
]]></description>
<Point><coordinates>-0.374845,39.479216</coordinates></Point>
</Placemark>
<Placemark><name>Waiting...</name>
<description><![CDATA[
<center><a href="http://farm6.static.flickr.com/5042/5336294607_fea5e295d2_z.jpg" ><img alt="Waiting..." src="http://farm6.static.flickr.com/5042/5336294607_fea5e295d2_m.jpg"/></a></center>
<p></p>
]]></description>
<Point><coordinates>-0.374875,39.479355</coordinates></Point>
</Placemark>
<Placemark><name>Theater</name>
<description><![CDATA[
<center><a href="http://farm6.static.flickr.com/5205/5336294119_9654c9a769_z.jpg" ><img alt="Theater" src="http://farm6.static.flickr.com/5205/5336294119_9654c9a769_m.jpg"/></a></center>
<p></p>
]]></description>
<Point><coordinates>-0.350387,39.453108</coordinates></Point>
</Placemark>
<Placemark><name>Melia Hotel</name>
<description><![CDATA[
<center><a href="http://farm6.static.flickr.com/5210/5336908098_566ac64234_z.jpg" ><img alt="Melia Hotel" src="http://farm6.static.flickr.com/5210/5336908098_566ac64234_m.jpg"/></a></center>
<p></p>
]]></description>
<Point><coordinates>-0.345612,39.457019</coordinates></Point>
</Placemark></Document></kml>
