<?xml version="1.0" encoding="UTF-8"?>
<kml xmlns="http://earth.google.com/kml/2.1">
<Document><name>Travelling Two Geotagged Photos for [[DATE]]</name>
<description><![CDATA[Geotagged Images from our travels.]]></description>

<Placemark><name>Heading to Tarragona</name>
<description><![CDATA[
<center><a href="http://farm6.static.flickr.com/5130/5339612408_2c91e9f9e3_z.jpg" ><img alt="Heading to Tarragona" src="http://farm6.static.flickr.com/5130/5339612408_2c91e9f9e3_m.jpg"/></a></center>
<p></p>
]]></description>
<Point><coordinates>1.156938,41.110305</coordinates></Point>
</Placemark>
<Placemark><name>Arriving at a plaza in Terragona</name>
<description><![CDATA[
<center><a href="http://farm6.static.flickr.com/5046/5338999595_0fff7f6819_z.jpg" ><img alt="Arriving at a plaza in Terragona" src="http://farm6.static.flickr.com/5046/5338999595_0fff7f6819_m.jpg"/></a></center>
<p></p>
]]></description>
<Point><coordinates>1.255583,41.116969</coordinates></Point>
</Placemark>
<Placemark><name>Windy Tarragona Roads</name>
<description><![CDATA[
<center><a href="http://farm6.static.flickr.com/5125/5338998875_cd95e39b2a_z.jpg" ><img alt="Windy Tarragona Roads" src="http://farm6.static.flickr.com/5125/5338998875_cd95e39b2a_m.jpg"/></a></center>
<p></p>
]]></description>
<Point><coordinates>1.25658,41.117258</coordinates></Point>
</Placemark>
<Placemark><name>Towards the Cathedral</name>
<description><![CDATA[
<center><a href="http://farm6.static.flickr.com/5122/5338997819_e2b256fefd_z.jpg" ><img alt="Towards the Cathedral" src="http://farm6.static.flickr.com/5122/5338997819_e2b256fefd_m.jpg"/></a></center>
<p></p>
]]></description>
<Point><coordinates>1.25658,41.117258</coordinates></Point>
</Placemark>
<Placemark><name>Walking the main street</name>
<description><![CDATA[
<center><a href="http://farm6.static.flickr.com/5288/5338996523_d48a0a58b8_z.jpg" ><img alt="Walking the main street" src="http://farm6.static.flickr.com/5288/5338996523_d48a0a58b8_m.jpg"/></a></center>
<p></p>
]]></description>
<Point><coordinates>1.257008,41.11775</coordinates></Point>
</Placemark>
<Placemark><name>Terragona Cathedral</name>
<description><![CDATA[
<center><a href="http://farm6.static.flickr.com/5245/5338995827_4e7e883892_z.jpg" ><img alt="Terragona Cathedral" src="http://farm6.static.flickr.com/5245/5338995827_4e7e883892_m.jpg"/></a></center>
<p></p>
]]></description>
<Point><coordinates>1.257558,41.118427</coordinates></Point>
</Placemark>
<Placemark><name>Terragona Cathedral</name>
<description><![CDATA[
<center><a href="http://farm6.static.flickr.com/5086/5338994679_096762dd18_z.jpg" ><img alt="Terragona Cathedral" src="http://farm6.static.flickr.com/5086/5338994679_096762dd18_m.jpg"/></a></center>
<p></p>
]]></description>
<Point><coordinates>1.25755,41.118519</coordinates></Point>
</Placemark>
<Placemark><name>Terragona Cathedral</name>
<description><![CDATA[
<center><a href="http://farm6.static.flickr.com/5164/5339605912_1448f48df6_z.jpg" ><img alt="Terragona Cathedral" src="http://farm6.static.flickr.com/5164/5339605912_1448f48df6_m.jpg"/></a></center>
<p></p>
]]></description>
<Point><coordinates>1.257622,41.118569</coordinates></Point>
</Placemark>
<Placemark><name>Tarragona Streets</name>
<description><![CDATA[
<center><a href="http://farm6.static.flickr.com/5082/5338992235_a15b43b427_z.jpg" ><img alt="Tarragona Streets" src="http://farm6.static.flickr.com/5082/5338992235_a15b43b427_m.jpg"/></a></center>
<p></p>
]]></description>
<Point><coordinates>1.2579,41.118736</coordinates></Point>
</Placemark>
<Placemark><name>Door Knocker</name>
<description><![CDATA[
<center><a href="http://farm6.static.flickr.com/5245/5338991333_b3a8dc5c39_z.jpg" ><img alt="Door Knocker" src="http://farm6.static.flickr.com/5245/5338991333_b3a8dc5c39_m.jpg"/></a></center>
<p></p>
]]></description>
<Point><coordinates>1.257811,41.118808</coordinates></Point>
</Placemark>
<Placemark><name>Tarragona Cathedral</name>
<description><![CDATA[
<center><a href="http://farm6.static.flickr.com/5008/5339602282_6a9a8112e5_z.jpg" ><img alt="Tarragona Cathedral" src="http://farm6.static.flickr.com/5008/5339602282_6a9a8112e5_m.jpg"/></a></center>
<p></p>
]]></description>
<Point><coordinates>1.257552,41.119322</coordinates></Point>
</Placemark>
<Placemark><name>Walking the halls of the old Tarragona Cathedral</name>
<description><![CDATA[
<center><a href="http://farm6.static.flickr.com/5166/5339601736_bb930d9043_z.jpg" ><img alt="Walking the halls of the old Tarragona Cathedral" src="http://farm6.static.flickr.com/5166/5339601736_bb930d9043_m.jpg"/></a></center>
<p></p>
]]></description>
<Point><coordinates>1.258794,41.11985</coordinates></Point>
</Placemark>
<Placemark><name>Jesus on the Cross</name>
<description><![CDATA[
<center><a href="http://farm6.static.flickr.com/5088/5338988809_66e962724b_z.jpg" ><img alt="Jesus on the Cross" src="http://farm6.static.flickr.com/5088/5338988809_66e962724b_m.jpg"/></a></center>
<p></p>
]]></description>
<Point><coordinates>1.258422,41.119641</coordinates></Point>
</Placemark>
<Placemark><name>DSC_5850</name>
<description><![CDATA[
<center><a href="http://farm6.static.flickr.com/5205/5339600518_d4008ba0e8_z.jpg" ><img alt="DSC_5850" src="http://farm6.static.flickr.com/5205/5339600518_d4008ba0e8_m.jpg"/></a></center>
<p></p>
]]></description>
<Point><coordinates>1.258422,41.119641</coordinates></Point>
</Placemark>
<Placemark><name>Entrance door to cathedral</name>
<description><![CDATA[
<center><a href="http://farm6.static.flickr.com/5209/5338987633_a2d02f5d65_z.jpg" ><img alt="Entrance door to cathedral" src="http://farm6.static.flickr.com/5209/5338987633_a2d02f5d65_m.jpg"/></a></center>
<p></p>
]]></description>
<Point><coordinates>1.258422,41.119641</coordinates></Point>
</Placemark>
<Placemark><name>Side Chapel</name>
<description><![CDATA[
<center><a href="http://farm6.static.flickr.com/5126/5338986847_9948557522_z.jpg" ><img alt="Side Chapel" src="http://farm6.static.flickr.com/5126/5338986847_9948557522_m.jpg"/></a></center>
<p></p>
]]></description>
<Point><coordinates>1.258422,41.119641</coordinates></Point>
</Placemark>
<Placemark><name>Main Altar</name>
<description><![CDATA[
<center><a href="http://farm6.static.flickr.com/5089/5339598464_80e1dc1d75_z.jpg" ><img alt="Main Altar" src="http://farm6.static.flickr.com/5089/5339598464_80e1dc1d75_m.jpg"/></a></center>
<p></p>
]]></description>
<Point><coordinates>1.258422,41.119641</coordinates></Point>
</Placemark>
<Placemark><name>Side of main cathedral</name>
<description><![CDATA[
<center><a href="http://farm6.static.flickr.com/5282/5339597838_55f968e0cb_z.jpg" ><img alt="Side of main cathedral" src="http://farm6.static.flickr.com/5282/5339597838_55f968e0cb_m.jpg"/></a></center>
<p></p>
]]></description>
<Point><coordinates>1.258422,41.119641</coordinates></Point>
</Placemark>
<Placemark><name>Main Altar</name>
<description><![CDATA[
<center><a href="http://farm6.static.flickr.com/5128/5339596684_d307df2cd3_z.jpg" ><img alt="Main Altar" src="http://farm6.static.flickr.com/5128/5339596684_d307df2cd3_m.jpg"/></a></center>
<p></p>
]]></description>
<Point><coordinates>1.258422,41.119641</coordinates></Point>
</Placemark>
<Placemark><name>Side room</name>
<description><![CDATA[
<center><a href="http://farm6.static.flickr.com/5283/5339596012_6c29ef60ed_z.jpg" ><img alt="Side room" src="http://farm6.static.flickr.com/5283/5339596012_6c29ef60ed_m.jpg"/></a></center>
<p></p>
]]></description>
<Point><coordinates>1.258422,41.119641</coordinates></Point>
</Placemark>
<Placemark><name>Ceiling</name>
<description><![CDATA[
<center><a href="http://farm6.static.flickr.com/5250/5338983007_7c3004e3d8_z.jpg" ><img alt="Ceiling" src="http://farm6.static.flickr.com/5250/5338983007_7c3004e3d8_m.jpg"/></a></center>
<p></p>
]]></description>
<Point><coordinates>1.258422,41.119641</coordinates></Point>
</Placemark>
<Placemark><name>Wall Sculptures</name>
<description><![CDATA[
<center><a href="http://farm6.static.flickr.com/5043/5338982003_04bc85ef9d_z.jpg" ><img alt="Wall Sculptures" src="http://farm6.static.flickr.com/5043/5338982003_04bc85ef9d_m.jpg"/></a></center>
<p></p>
]]></description>
<Point><coordinates>1.258422,41.119641</coordinates></Point>
</Placemark>
<Placemark><name>Candles</name>
<description><![CDATA[
<center><a href="http://farm6.static.flickr.com/5167/5338981455_e18c4d64c6_z.jpg" ><img alt="Candles" src="http://farm6.static.flickr.com/5167/5338981455_e18c4d64c6_m.jpg"/></a></center>
<p></p>
]]></description>
<Point><coordinates>1.258422,41.119641</coordinates></Point>
</Placemark>
<Placemark><name>Tarragona from the Cathedral</name>
<description><![CDATA[
<center><a href="http://farm6.static.flickr.com/5088/5338980799_f7a99ec036_z.jpg" ><img alt="Tarragona from the Cathedral" src="http://farm6.static.flickr.com/5088/5338980799_f7a99ec036_m.jpg"/></a></center>
<p></p>
]]></description>
<Point><coordinates>1.258422,41.119641</coordinates></Point>
</Placemark>
<Placemark><name>Monkey Graffiti</name>
<description><![CDATA[
<center><a href="http://farm6.static.flickr.com/5162/5338980059_05d374f3ee_z.jpg" ><img alt="Monkey Graffiti" src="http://farm6.static.flickr.com/5162/5338980059_05d374f3ee_m.jpg"/></a></center>
<p></p>
]]></description>
<Point><coordinates>1.257,41.118383</coordinates></Point>
</Placemark>
<Placemark><name>The Invisible Man Graffiti</name>
<description><![CDATA[
<center><a href="http://farm6.static.flickr.com/5247/5339591266_04e92ea79a_z.jpg" ><img alt="The Invisible Man Graffiti" src="http://farm6.static.flickr.com/5247/5339591266_04e92ea79a_m.jpg"/></a></center>
<p></p>
]]></description>
<Point><coordinates>1.257,41.118383</coordinates></Point>
</Placemark>
<Placemark><name>Shoes</name>
<description><![CDATA[
<center><a href="http://farm6.static.flickr.com/5089/5339590692_ae7366c4ff_z.jpg" ><img alt="Shoes" src="http://farm6.static.flickr.com/5089/5339590692_ae7366c4ff_m.jpg"/></a></center>
<p></p>
]]></description>
<Point><coordinates>1.257452,41.118308</coordinates></Point>
</Placemark>
<Placemark><name>Lunch in Tarragona</name>
<description><![CDATA[
<center><a href="http://farm6.static.flickr.com/5123/5338978135_56cba44431_z.jpg" ><img alt="Lunch in Tarragona" src="http://farm6.static.flickr.com/5123/5338978135_56cba44431_m.jpg"/></a></center>
<p></p>
]]></description>
<Point><coordinates>1.256922,41.117363</coordinates></Point>
</Placemark>
<Placemark><name>Wine opener on the wall</name>
<description><![CDATA[
<center><a href="http://farm6.static.flickr.com/5088/5338973415_4521bd3f26_z.jpg" ><img alt="Wine opener on the wall" src="http://farm6.static.flickr.com/5088/5338973415_4521bd3f26_m.jpg"/></a></center>
<p></p>
]]></description>
<Point><coordinates>1.256922,41.117363</coordinates></Point>
</Placemark>
<Placemark><name>Vina del Mar</name>
<description><![CDATA[
<center><a href="http://farm6.static.flickr.com/5244/5338972889_a61b8e6e0f_z.jpg" ><img alt="Vina del Mar" src="http://farm6.static.flickr.com/5244/5338972889_a61b8e6e0f_m.jpg"/></a></center>
<p></p>
]]></description>
<Point><coordinates>1.256922,41.117363</coordinates></Point>
</Placemark>
<Placemark><name>The bar</name>
<description><![CDATA[
<center><a href="http://farm6.static.flickr.com/5244/5338972063_f364197809_z.jpg" ><img alt="The bar" src="http://farm6.static.flickr.com/5244/5338972063_f364197809_m.jpg"/></a></center>
<p></p>
]]></description>
<Point><coordinates>1.256922,41.117363</coordinates></Point>
</Placemark>
<Placemark><name>Best lunch in Tarragona</name>
<description><![CDATA[
<center><a href="http://farm6.static.flickr.com/5081/5339583226_1e58a06b78_z.jpg" ><img alt="Best lunch in Tarragona" src="http://farm6.static.flickr.com/5081/5339583226_1e58a06b78_m.jpg"/></a></center>
<p></p>
]]></description>
<Point><coordinates>1.256922,41.117363</coordinates></Point>
</Placemark>
<Placemark><name>DSC_5909</name>
<description><![CDATA[
<center><a href="http://farm6.static.flickr.com/5166/5338970455_9f11f64354_z.jpg" ><img alt="DSC_5909" src="http://farm6.static.flickr.com/5166/5338970455_9f11f64354_m.jpg"/></a></center>
<p></p>
]]></description>
<Point><coordinates>1.258108,41.115086</coordinates></Point>
</Placemark>
<Placemark><name>Action</name>
<description><![CDATA[
<center><a href="http://farm6.static.flickr.com/5241/5338969767_a517eed0d1_z.jpg" ><img alt="Action" src="http://farm6.static.flickr.com/5241/5338969767_a517eed0d1_m.jpg"/></a></center>
<p></p>
]]></description>
<Point><coordinates>1.258088,41.115097</coordinates></Point>
</Placemark>
<Placemark><name>Along the ancient amphitheater</name>
<description><![CDATA[
<center><a href="http://farm6.static.flickr.com/5047/5339580548_c8c9d5413a_z.jpg" ><img alt="Along the ancient amphitheater" src="http://farm6.static.flickr.com/5047/5339580548_c8c9d5413a_m.jpg"/></a></center>
<p></p>
]]></description>
<Point><coordinates>1.259008,41.114983</coordinates></Point>
</Placemark>
<Placemark><name>Ancient Amphitheater</name>
<description><![CDATA[
<center><a href="http://farm6.static.flickr.com/5250/5339579866_8426e9760c_z.jpg" ><img alt="Ancient Amphitheater" src="http://farm6.static.flickr.com/5250/5339579866_8426e9760c_m.jpg"/></a></center>
<p></p>
]]></description>
<Point><coordinates>1.259261,41.114672</coordinates></Point>
</Placemark>
<Placemark><name>Ancient Amphitheater</name>
<description><![CDATA[
<center><a href="http://farm6.static.flickr.com/5250/5339579082_3bea4b8598_z.jpg" ><img alt="Ancient Amphitheater" src="http://farm6.static.flickr.com/5250/5339579082_3bea4b8598_m.jpg"/></a></center>
<p></p>
]]></description>
<Point><coordinates>1.259261,41.114672</coordinates></Point>
</Placemark>
<Placemark><name>Ancient Amphitheater</name>
<description><![CDATA[
<center><a href="http://farm6.static.flickr.com/5005/5338966491_812a31039b_z.jpg" ><img alt="Ancient Amphitheater" src="http://farm6.static.flickr.com/5005/5338966491_812a31039b_m.jpg"/></a></center>
<p></p>
]]></description>
<Point><coordinates>1.25908,41.114911</coordinates></Point>
</Placemark>
<Placemark><name>Some delicious Turkish food</name>
<description><![CDATA[
<center><a href="http://farm6.static.flickr.com/5162/5338965861_0184e33e20_z.jpg" ><img alt="Some delicious Turkish food" src="http://farm6.static.flickr.com/5162/5338965861_0184e33e20_m.jpg"/></a></center>
<p></p>
]]></description>
<Point><coordinates>2.174283,41.37918</coordinates></Point>
</Placemark>
<Placemark><name>Walking along La Rambla</name>
<description><![CDATA[
<center><a href="http://farm6.static.flickr.com/5046/5338965233_a6d18e1131_z.jpg" ><img alt="Walking along La Rambla" src="http://farm6.static.flickr.com/5046/5338965233_a6d18e1131_m.jpg"/></a></center>
<p></p>
]]></description>
<Point><coordinates>2.172688,41.381758</coordinates></Point>
</Placemark>
<Placemark><name>DSC_5943</name>
<description><![CDATA[
<center><a href="http://farm6.static.flickr.com/5005/5339576080_57213544d3_z.jpg" ><img alt="DSC_5943" src="http://farm6.static.flickr.com/5005/5339576080_57213544d3_m.jpg"/></a></center>
<p></p>
]]></description>
<Point><coordinates>2.171619,41.383097</coordinates></Point>
</Placemark>
<Placemark><name>La Rambla</name>
<description><![CDATA[
<center><a href="http://farm6.static.flickr.com/5170/5339575530_45262a47f2_z.jpg" ><img alt="La Rambla" src="http://farm6.static.flickr.com/5170/5339575530_45262a47f2_m.jpg"/></a></center>
<p></p>
]]></description>
<Point><coordinates>2.170283,41.385088</coordinates></Point>
</Placemark>
<Placemark><name>Me and Angelle</name>
<description><![CDATA[
<center><a href="http://farm6.static.flickr.com/5289/5339574908_22d2180bcc_z.jpg" ><img alt="Me and Angelle" src="http://farm6.static.flickr.com/5289/5339574908_22d2180bcc_m.jpg"/></a></center>
<p></p>
]]></description>
<Point><coordinates>2.169986,41.385458</coordinates></Point>
</Placemark>
<Placemark><name>Blaine and Sara</name>
<description><![CDATA[
<center><a href="http://farm6.static.flickr.com/5049/5338962603_1abe170354_z.jpg" ><img alt="Blaine and Sara" src="http://farm6.static.flickr.com/5049/5338962603_1abe170354_m.jpg"/></a></center>
<p></p>
]]></description>
<Point><coordinates>2.169986,41.385458</coordinates></Point>
</Placemark>
<Placemark><name>Jen and Brad</name>
<description><![CDATA[
<center><a href="http://farm6.static.flickr.com/5206/5338961641_2f12e00971_z.jpg" ><img alt="Jen and Brad" src="http://farm6.static.flickr.com/5206/5338961641_2f12e00971_m.jpg"/></a></center>
<p></p>
]]></description>
<Point><coordinates>2.169997,41.385566</coordinates></Point>
</Placemark>
<Placemark><name>Crowds</name>
<description><![CDATA[
<center><a href="http://farm6.static.flickr.com/5281/5339572594_e92786202b_z.jpg" ><img alt="Crowds" src="http://farm6.static.flickr.com/5281/5339572594_e92786202b_m.jpg"/></a></center>
<p></p>
]]></description>
<Point><coordinates>2.169997,41.385566</coordinates></Point>
</Placemark>
<Placemark><name>Crowds</name>
<description><![CDATA[
<center><a href="http://farm6.static.flickr.com/5123/5339571700_eb0d8798b0_z.jpg" ><img alt="Crowds" src="http://farm6.static.flickr.com/5123/5339571700_eb0d8798b0_m.jpg"/></a></center>
<p></p>
]]></description>
<Point><coordinates>2.170013,41.385497</coordinates></Point>
</Placemark>
<Placemark><name>Crowds</name>
<description><![CDATA[
<center><a href="http://farm6.static.flickr.com/5165/5338959271_c1ac717c9d_z.jpg" ><img alt="Crowds" src="http://farm6.static.flickr.com/5165/5338959271_c1ac717c9d_m.jpg"/></a></center>
<p></p>
]]></description>
<Point><coordinates>2.170013,41.385497</coordinates></Point>
</Placemark>
<Placemark><name>Crowds</name>
<description><![CDATA[
<center><a href="http://farm6.static.flickr.com/5284/5338958321_bce6e3bf86_z.jpg" ><img alt="Crowds" src="http://farm6.static.flickr.com/5284/5338958321_bce6e3bf86_m.jpg"/></a></center>
<p></p>
]]></description>
<Point><coordinates>2.170013,41.385497</coordinates></Point>
</Placemark>
<Placemark><name>Happy 2011</name>
<description><![CDATA[
<center><a href="http://farm6.static.flickr.com/5161/5338957601_92f24eff54_z.jpg" ><img alt="Happy 2011" src="http://farm6.static.flickr.com/5161/5338957601_92f24eff54_m.jpg"/></a></center>
<p></p>
]]></description>
<Point><coordinates>2.170063,41.385513</coordinates></Point>
</Placemark>
<Placemark><name>Street light in plaza</name>
<description><![CDATA[
<center><a href="http://farm6.static.flickr.com/5089/5339568538_0dcf74e1ef_z.jpg" ><img alt="Street light in plaza" src="http://farm6.static.flickr.com/5089/5339568538_0dcf74e1ef_m.jpg"/></a></center>
<p></p>
]]></description>
<Point><coordinates>2.16998,41.385577</coordinates></Point>
</Placemark>
<Placemark><name>Clock at New Years in Plaza on Las Ramblas</name>
<description><![CDATA[
<center><a href="http://farm6.static.flickr.com/5204/5339568130_2ae452f40c_z.jpg" ><img alt="Clock at New Years in Plaza on Las Ramblas" src="http://farm6.static.flickr.com/5204/5339568130_2ae452f40c_m.jpg"/></a></center>
<p></p>
]]></description>
<Point><coordinates>2.170002,41.385533</coordinates></Point>
</Placemark></Document></kml>
