<?xml version="1.0" encoding="UTF-8"?>
<kml xmlns="http://earth.google.com/kml/2.1">
<Document><name>Travelling Two Geotagged Photos for [[DATE]]</name>
<description><![CDATA[Geotagged Images from our travels.]]></description>

<Placemark><name>Gaudi Cathedral</name>
<description><![CDATA[
<center><a href="http://farm6.static.flickr.com/5161/5339401689_4e93c82445_z.jpg" ><img alt="Gaudi Cathedral" src="http://farm6.static.flickr.com/5161/5339401689_4e93c82445_m.jpg"/></a></center>
<p></p>
]]></description>
<Point><coordinates>2.173708,41.403338</coordinates></Point>
</Placemark>
<Placemark><name>Gaudi Cathedral</name>
<description><![CDATA[
<center><a href="http://farm6.static.flickr.com/5203/5339400787_0cfafa5b4a_z.jpg" ><img alt="Gaudi Cathedral" src="http://farm6.static.flickr.com/5203/5339400787_0cfafa5b4a_m.jpg"/></a></center>
<p></p>
]]></description>
<Point><coordinates>2.173786,41.403363</coordinates></Point>
</Placemark>
<Placemark><name>Gaudi Cathedral Ceiling</name>
<description><![CDATA[
<center><a href="http://farm6.static.flickr.com/5248/5340009854_26f1aa74b4_z.jpg" ><img alt="Gaudi Cathedral Ceiling" src="http://farm6.static.flickr.com/5248/5340009854_26f1aa74b4_m.jpg"/></a></center>
<p></p>
]]></description>
<Point><coordinates>2.174166,41.403566</coordinates></Point>
</Placemark>
<Placemark><name>Gaudi Cathedral Altar</name>
<description><![CDATA[
<center><a href="http://farm6.static.flickr.com/5249/5340009228_55bd920cd6_z.jpg" ><img alt="Gaudi Cathedral Altar" src="http://farm6.static.flickr.com/5249/5340009228_55bd920cd6_m.jpg"/></a></center>
<p></p>
]]></description>
<Point><coordinates>2.174461,41.403683</coordinates></Point>
</Placemark>
<Placemark><name>Gaudi Cathedral Altar</name>
<description><![CDATA[
<center><a href="http://farm6.static.flickr.com/5203/5339399031_706fa55533_z.jpg" ><img alt="Gaudi Cathedral Altar" src="http://farm6.static.flickr.com/5203/5339399031_706fa55533_m.jpg"/></a></center>
<p></p>
]]></description>
<Point><coordinates>2.174461,41.403683</coordinates></Point>
</Placemark>
<Placemark><name>Gaudi Cathedral Side</name>
<description><![CDATA[
<center><a href="http://farm6.static.flickr.com/5121/5340008160_0eb6d99af7_z.jpg" ><img alt="Gaudi Cathedral Side" src="http://farm6.static.flickr.com/5121/5340008160_0eb6d99af7_m.jpg"/></a></center>
<p></p>
]]></description>
<Point><coordinates>2.174461,41.403683</coordinates></Point>
</Placemark>
<Placemark><name>Gaudi Cathedral Altar</name>
<description><![CDATA[
<center><a href="http://farm6.static.flickr.com/5281/5339398125_5d61f0102f_z.jpg" ><img alt="Gaudi Cathedral Altar" src="http://farm6.static.flickr.com/5281/5339398125_5d61f0102f_m.jpg"/></a></center>
<p></p>
]]></description>
<Point><coordinates>2.173694,41.403511</coordinates></Point>
</Placemark>
<Placemark><name>Above the Gaudi Cathedral Altar</name>
<description><![CDATA[
<center><a href="http://farm6.static.flickr.com/5163/5340006976_1b2b9350b2_z.jpg" ><img alt="Above the Gaudi Cathedral Altar" src="http://farm6.static.flickr.com/5163/5340006976_1b2b9350b2_m.jpg"/></a></center>
<p></p>
]]></description>
<Point><coordinates>2.174116,41.403508</coordinates></Point>
</Placemark>
<Placemark><name>Spiral Staircase in Gaudi Cathedral</name>
<description><![CDATA[
<center><a href="http://farm6.static.flickr.com/5005/5339396915_81d3b35d09_z.jpg" ><img alt="Spiral Staircase in Gaudi Cathedral" src="http://farm6.static.flickr.com/5005/5339396915_81d3b35d09_m.jpg"/></a></center>
<p></p>
]]></description>
<Point><coordinates>2.174747,41.403583</coordinates></Point>
</Placemark>
<Placemark><name>Another Spiral Staircase</name>
<description><![CDATA[
<center><a href="http://farm6.static.flickr.com/5163/5339396391_6fb5420ded_z.jpg" ><img alt="Another Spiral Staircase" src="http://farm6.static.flickr.com/5163/5339396391_6fb5420ded_m.jpg"/></a></center>
<p></p>
]]></description>
<Point><coordinates>2.174872,41.403855</coordinates></Point>
</Placemark>
<Placemark><name>Ceiling and huge columns</name>
<description><![CDATA[
<center><a href="http://farm6.static.flickr.com/5004/5340005578_647c3698fb_z.jpg" ><img alt="Ceiling and huge columns" src="http://farm6.static.flickr.com/5004/5340005578_647c3698fb_m.jpg"/></a></center>
<p></p>
]]></description>
<Point><coordinates>2.174305,41.403725</coordinates></Point>
</Placemark>
<Placemark><name>View above the altar</name>
<description><![CDATA[
<center><a href="http://farm6.static.flickr.com/5009/5340004978_de26e43fd1_z.jpg" ><img alt="View above the altar" src="http://farm6.static.flickr.com/5009/5340004978_de26e43fd1_m.jpg"/></a></center>
<p></p>
]]></description>
<Point><coordinates>2.174308,41.403933</coordinates></Point>
</Placemark>
<Placemark><name>Gaudi Cathedral</name>
<description><![CDATA[
<center><a href="http://farm6.static.flickr.com/5283/5339394649_2bff26e9c1_z.jpg" ><img alt="Gaudi Cathedral" src="http://farm6.static.flickr.com/5283/5339394649_2bff26e9c1_m.jpg"/></a></center>
<p></p>
]]></description>
<Point><coordinates>2.174886,41.403716</coordinates></Point>
</Placemark>
<Placemark><name>Gaudi Cathedral</name>
<description><![CDATA[
<center><a href="http://farm6.static.flickr.com/5289/5339393673_1fb478769d_z.jpg" ><img alt="Gaudi Cathedral" src="http://farm6.static.flickr.com/5289/5339393673_1fb478769d_m.jpg"/></a></center>
<p></p>
]]></description>
<Point><coordinates>2.174072,41.403041</coordinates></Point>
</Placemark>
<Placemark><name>Other Side Entrance</name>
<description><![CDATA[
<center><a href="http://farm6.static.flickr.com/5249/5339393083_bd77738a6a_z.jpg" ><img alt="Other Side Entrance" src="http://farm6.static.flickr.com/5249/5339393083_bd77738a6a_m.jpg"/></a></center>
<p></p>
]]></description>
<Point><coordinates>2.174791,41.403505</coordinates></Point>
</Placemark>
<Placemark><name>Gaudi Cathedral Main Altar</name>
<description><![CDATA[
<center><a href="http://farm6.static.flickr.com/5167/5340002060_56848c70f1_z.jpg" ><img alt="Gaudi Cathedral Main Altar" src="http://farm6.static.flickr.com/5167/5340002060_56848c70f1_m.jpg"/></a></center>
<p></p>
]]></description>
<Point><coordinates>2.17435,41.403386</coordinates></Point>
</Placemark>
<Placemark><name>Gaudi Cathedral Main Altar</name>
<description><![CDATA[
<center><a href="http://farm6.static.flickr.com/5129/5339391637_acab445598_z.jpg" ><img alt="Gaudi Cathedral Main Altar" src="http://farm6.static.flickr.com/5129/5339391637_acab445598_m.jpg"/></a></center>
<p></p>
]]></description>
<Point><coordinates>2.17435,41.403386</coordinates></Point>
</Placemark>
<Placemark><name>Gaudi Cathedral Ceiling</name>
<description><![CDATA[
<center><a href="http://farm6.static.flickr.com/5046/5339391163_36fe3c2bc2_z.jpg" ><img alt="Gaudi Cathedral Ceiling" src="http://farm6.static.flickr.com/5046/5339391163_36fe3c2bc2_m.jpg"/></a></center>
<p></p>
]]></description>
<Point><coordinates>2.173997,41.403422</coordinates></Point>
</Placemark>
<Placemark><name>The Doors of the Gaudi Cathedral</name>
<description><![CDATA[
<center><a href="http://farm6.static.flickr.com/5002/5340000094_dd19869102_z.jpg" ><img alt="The Doors of the Gaudi Cathedral" src="http://farm6.static.flickr.com/5002/5340000094_dd19869102_m.jpg"/></a></center>
<p></p>
]]></description>
<Point><coordinates>2.173755,41.403227</coordinates></Point>
</Placemark>
<Placemark><name>Statue outside of side entrance</name>
<description><![CDATA[
<center><a href="http://farm6.static.flickr.com/5090/5339389765_f3d647c9b6_z.jpg" ><img alt="Statue outside of side entrance" src="http://farm6.static.flickr.com/5090/5339389765_f3d647c9b6_m.jpg"/></a></center>
<p></p>
]]></description>
<Point><coordinates>2.173755,41.403227</coordinates></Point>
</Placemark>
<Placemark><name>Above Side Entrance</name>
<description><![CDATA[
<center><a href="http://farm6.static.flickr.com/5209/5339389307_7fd485e14c_z.jpg" ><img alt="Above Side Entrance" src="http://farm6.static.flickr.com/5209/5339389307_7fd485e14c_m.jpg"/></a></center>
<p></p>
]]></description>
<Point><coordinates>2.173861,41.403305</coordinates></Point>
</Placemark>
<Placemark><name>Jesus Statue by Side Entrance</name>
<description><![CDATA[
<center><a href="http://farm6.static.flickr.com/5287/5339998042_03b46f6aab_z.jpg" ><img alt="Jesus Statue by Side Entrance" src="http://farm6.static.flickr.com/5287/5339998042_03b46f6aab_m.jpg"/></a></center>
<p></p>
]]></description>
<Point><coordinates>2.173838,41.403277</coordinates></Point>
</Placemark>
<Placemark><name>Above the Side Entrance</name>
<description><![CDATA[
<center><a href="http://farm6.static.flickr.com/5207/5339388243_40b06f2c17_z.jpg" ><img alt="Above the Side Entrance" src="http://farm6.static.flickr.com/5207/5339388243_40b06f2c17_m.jpg"/></a></center>
<p></p>
]]></description>
<Point><coordinates>2.173719,41.403225</coordinates></Point>
</Placemark>
<Placemark><name>Painting the Cathedral</name>
<description><![CDATA[
<center><a href="http://farm6.static.flickr.com/5124/5339997016_d03a32e1e0_z.jpg" ><img alt="Painting the Cathedral" src="http://farm6.static.flickr.com/5124/5339997016_d03a32e1e0_m.jpg"/></a></center>
<p></p>
]]></description>
<Point><coordinates>2.173747,41.404158</coordinates></Point>
</Placemark>
<Placemark><name>DSC_6062</name>
<description><![CDATA[
<center><a href="http://farm6.static.flickr.com/5247/5339387257_f7da15c4e6_z.jpg" ><img alt="DSC_6062" src="http://farm6.static.flickr.com/5247/5339387257_f7da15c4e6_m.jpg"/></a></center>
<p></p>
]]></description>
<Point><coordinates>2.153386,41.411316</coordinates></Point>
</Placemark>
<Placemark><name>DSC_6063</name>
<description><![CDATA[
<center><a href="http://farm6.static.flickr.com/5208/5339995968_997ef88143_z.jpg" ><img alt="DSC_6063" src="http://farm6.static.flickr.com/5208/5339995968_997ef88143_m.jpg"/></a></center>
<p></p>
]]></description>
<Point><coordinates>2.1533,41.411408</coordinates></Point>
</Placemark>
<Placemark><name>Escalators up to Park Guell</name>
<description><![CDATA[
<center><a href="http://farm6.static.flickr.com/5121/5339386123_ddc17f7185_z.jpg" ><img alt="Escalators up to Park Guell" src="http://farm6.static.flickr.com/5121/5339386123_ddc17f7185_m.jpg"/></a></center>
<p></p>
]]></description>
<Point><coordinates>2.153188,41.411552</coordinates></Point>
</Placemark>
<Placemark><name>Heading to Park Guell</name>
<description><![CDATA[
<center><a href="http://farm6.static.flickr.com/5090/5339385713_dac4429f2a_z.jpg" ><img alt="Heading to Park Guell" src="http://farm6.static.flickr.com/5090/5339385713_dac4429f2a_m.jpg"/></a></center>
<p></p>
]]></description>
<Point><coordinates>2.153227,41.411497</coordinates></Point>
</Placemark>
<Placemark><name>Park Guell</name>
<description><![CDATA[
<center><a href="http://farm6.static.flickr.com/5001/5339385153_7fe7509c15_z.jpg" ><img alt="Park Guell" src="http://farm6.static.flickr.com/5001/5339385153_7fe7509c15_m.jpg"/></a></center>
<p></p>
]]></description>
<Point><coordinates>2.152258,41.413033</coordinates></Point>
</Placemark>
<Placemark><name>Park Guell</name>
<description><![CDATA[
<center><a href="http://farm6.static.flickr.com/5130/5339384673_1de667dce6_z.jpg" ><img alt="Park Guell" src="http://farm6.static.flickr.com/5130/5339384673_1de667dce6_m.jpg"/></a></center>
<p></p>
]]></description>
<Point><coordinates>2.15208,41.41398</coordinates></Point>
</Placemark>
<Placemark><name>Park Guell</name>
<description><![CDATA[
<center><a href="http://farm6.static.flickr.com/5283/5339384169_15bb8bd467_z.jpg" ><img alt="Park Guell" src="http://farm6.static.flickr.com/5283/5339384169_15bb8bd467_m.jpg"/></a></center>
<p></p>
]]></description>
<Point><coordinates>2.152011,41.413986</coordinates></Point>
</Placemark>
<Placemark><name>Having fun in the park :P</name>
<description><![CDATA[
<center><a href="http://farm6.static.flickr.com/5242/5339383531_a3f5486ed1_z.jpg" ><img alt="Having fun in the park :P" src="http://farm6.static.flickr.com/5242/5339383531_a3f5486ed1_m.jpg"/></a></center>
<p></p>
]]></description>
<Point><coordinates>2.152011,41.413986</coordinates></Point>
</Placemark>
<Placemark><name>DSC_6076</name>
<description><![CDATA[
<center><a href="http://farm6.static.flickr.com/5122/5339991830_9fa1712e0b_z.jpg" ><img alt="DSC_6076" src="http://farm6.static.flickr.com/5122/5339991830_9fa1712e0b_m.jpg"/></a></center>
<p></p>
]]></description>
<Point><coordinates>2.152644,41.414266</coordinates></Point>
</Placemark>
<Placemark><name>Vendors setting up around the corner from the cops</name>
<description><![CDATA[
<center><a href="http://farm6.static.flickr.com/5209/5339381913_f459655a6e_z.jpg" ><img alt="Vendors setting up around the corner from the cops" src="http://farm6.static.flickr.com/5209/5339381913_f459655a6e_m.jpg"/></a></center>
<p></p>
]]></description>
<Point><coordinates>2.152658,41.414294</coordinates></Point>
</Placemark>
<Placemark><name>Gaudi's House</name>
<description><![CDATA[
<center><a href="http://farm6.static.flickr.com/5007/5339990634_3ca251a1a6_z.jpg" ><img alt="Gaudi's House" src="http://farm6.static.flickr.com/5007/5339990634_3ca251a1a6_m.jpg"/></a></center>
<p></p>
]]></description>
<Point><coordinates>2.153541,41.414602</coordinates></Point>
</Placemark>
<Placemark><name>Sara and Blaine in Park Guell</name>
<description><![CDATA[
<center><a href="http://farm6.static.flickr.com/5207/5339990006_64279a1f5d_z.jpg" ><img alt="Sara and Blaine in Park Guell" src="http://farm6.static.flickr.com/5207/5339990006_64279a1f5d_m.jpg"/></a></center>
<p></p>
]]></description>
<Point><coordinates>2.153966,41.414536</coordinates></Point>
</Placemark>
<Placemark><name>Top of the Park Guel</name>
<description><![CDATA[
<center><a href="http://farm6.static.flickr.com/5130/5339380141_5ebff4821d_z.jpg" ><img alt="Top of the Park Guel" src="http://farm6.static.flickr.com/5130/5339380141_5ebff4821d_m.jpg"/></a></center>
<p></p>
]]></description>
<Point><coordinates>2.154191,41.414522</coordinates></Point>
</Placemark>
<Placemark><name>Sara and Blaine walking in the park guell</name>
<description><![CDATA[
<center><a href="http://farm6.static.flickr.com/5004/5339379403_78a375a4fa_z.jpg" ><img alt="Sara and Blaine walking in the park guell" src="http://farm6.static.flickr.com/5004/5339379403_78a375a4fa_m.jpg"/></a></center>
<p></p>
]]></description>
<Point><coordinates>2.154061,41.414255</coordinates></Point>
</Placemark>
<Placemark><name>Park Guell Entrance</name>
<description><![CDATA[
<center><a href="http://farm6.static.flickr.com/5207/5339988066_97963d7785_z.jpg" ><img alt="Park Guell Entrance" src="http://farm6.static.flickr.com/5207/5339988066_97963d7785_m.jpg"/></a></center>
<p></p>
]]></description>
<Point><coordinates>2.153011,41.413561</coordinates></Point>
</Placemark>
<Placemark><name>Park Guell Entrance</name>
<description><![CDATA[
<center><a href="http://farm6.static.flickr.com/5290/5339987598_761b45c87d_z.jpg" ><img alt="Park Guell Entrance" src="http://farm6.static.flickr.com/5290/5339987598_761b45c87d_m.jpg"/></a></center>
<p></p>
]]></description>
<Point><coordinates>2.153011,41.413561</coordinates></Point>
</Placemark>
<Placemark><name>DSC_6092</name>
<description><![CDATA[
<center><a href="http://farm6.static.flickr.com/5169/5339377979_b82e082874_z.jpg" ><img alt="DSC_6092" src="http://farm6.static.flickr.com/5169/5339377979_b82e082874_m.jpg"/></a></center>
<p></p>
]]></description>
<Point><coordinates>2.152972,41.413527</coordinates></Point>
</Placemark>
<Placemark><name>DSC_6096</name>
<description><![CDATA[
<center><a href="http://farm6.static.flickr.com/5284/5339377007_9a1fb37b32_z.jpg" ><img alt="DSC_6096" src="http://farm6.static.flickr.com/5284/5339377007_9a1fb37b32_m.jpg"/></a></center>
<p></p>
]]></description>
<Point><coordinates>2.173805,41.380558</coordinates></Point>
</Placemark>
<Placemark><name>DSC_6101</name>
<description><![CDATA[
<center><a href="http://farm6.static.flickr.com/5208/5339376247_4785b4c11c_z.jpg" ><img alt="DSC_6101" src="http://farm6.static.flickr.com/5208/5339376247_4785b4c11c_m.jpg"/></a></center>
<p></p>
]]></description>
<Point><coordinates>2.175919,41.378672</coordinates></Point>
</Placemark>
<Placemark><name>DSC_6104</name>
<description><![CDATA[
<center><a href="http://farm6.static.flickr.com/5081/5339375815_dd64611d44_z.jpg" ><img alt="DSC_6104" src="http://farm6.static.flickr.com/5081/5339375815_dd64611d44_m.jpg"/></a></center>
<p></p>
]]></description>
<Point><coordinates>2.177383,41.375997</coordinates></Point>
</Placemark>
<Placemark><name>DSC_6106</name>
<description><![CDATA[
<center><a href="http://farm6.static.flickr.com/5085/5339984628_9d9d9aa7cf_z.jpg" ><img alt="DSC_6106" src="http://farm6.static.flickr.com/5085/5339984628_9d9d9aa7cf_m.jpg"/></a></center>
<p></p>
]]></description>
<Point><coordinates>2.177791,41.375927</coordinates></Point>
</Placemark>
<Placemark><name>Port De Barcelona</name>
<description><![CDATA[
<center><a href="http://farm6.static.flickr.com/5089/5339374865_9b5647d32a_z.jpg" ><img alt="Port De Barcelona" src="http://farm6.static.flickr.com/5089/5339374865_9b5647d32a_m.jpg"/></a></center>
<p></p>
]]></description>
<Point><coordinates>2.17873,41.375533</coordinates></Point>
</Placemark>
<Placemark><name>Port De Barcelona</name>
<description><![CDATA[
<center><a href="http://farm6.static.flickr.com/5206/5339373939_aa75c9c179_z.jpg" ><img alt="Port De Barcelona" src="http://farm6.static.flickr.com/5206/5339373939_aa75c9c179_m.jpg"/></a></center>
<p></p>
]]></description>
<Point><coordinates>2.179108,41.37575</coordinates></Point>
</Placemark>
<Placemark><name>DSC_6120</name>
<description><![CDATA[
<center><a href="http://farm6.static.flickr.com/5086/5339373085_d4ddf8190f_z.jpg" ><img alt="DSC_6120" src="http://farm6.static.flickr.com/5086/5339373085_d4ddf8190f_m.jpg"/></a></center>
<p></p>
]]></description>
<Point><coordinates>2.182902,41.383016</coordinates></Point>
</Placemark>
<Placemark><name>Sangria Finaly</name>
<description><![CDATA[
<center><a href="http://farm6.static.flickr.com/5003/5339981906_ddcf0fe457_z.jpg" ><img alt="Sangria Finaly" src="http://farm6.static.flickr.com/5003/5339981906_ddcf0fe457_m.jpg"/></a></center>
<p></p>
]]></description>
<Point><coordinates>2.183263,41.383288</coordinates></Point>
</Placemark>
<Placemark><name>Sangria</name>
<description><![CDATA[
<center><a href="http://farm6.static.flickr.com/5125/5339981454_cc1fa98a2e_z.jpg" ><img alt="Sangria" src="http://farm6.static.flickr.com/5125/5339981454_cc1fa98a2e_m.jpg"/></a></center>
<p></p>
]]></description>
<Point><coordinates>2.183263,41.383288</coordinates></Point>
</Placemark>
<Placemark><name>Duck Liver and Beef</name>
<description><![CDATA[
<center><a href="http://farm6.static.flickr.com/5125/5339371623_81dec5e27f_z.jpg" ><img alt="Duck Liver and Beef" src="http://farm6.static.flickr.com/5125/5339371623_81dec5e27f_m.jpg"/></a></center>
<p>Duck Liver and Beef</p>
]]></description>
<Point><coordinates>2.183194,41.382836</coordinates></Point>
</Placemark>
<Placemark><name>Sesame Chicken</name>
<description><![CDATA[
<center><a href="http://farm6.static.flickr.com/5205/5339371261_a0bef2dc1a_z.jpg" ><img alt="Sesame Chicken" src="http://farm6.static.flickr.com/5205/5339371261_a0bef2dc1a_m.jpg"/></a></center>
<p>Sesame Chicken</p>
]]></description>
<Point><coordinates>2.183411,41.382802</coordinates></Point>
</Placemark>
<Placemark><name>Brownie With Ice Cream</name>
<description><![CDATA[
<center><a href="http://farm6.static.flickr.com/5042/5339980010_d7e0ce7638_z.jpg" ><img alt="Brownie With Ice Cream" src="http://farm6.static.flickr.com/5042/5339980010_d7e0ce7638_m.jpg"/></a></center>
<p></p>
]]></description>
<Point><coordinates>2.183483,41.382808</coordinates></Point>
</Placemark>
<Placemark><name>Restaurant in the Rain</name>
<description><![CDATA[
<center><a href="http://farm6.static.flickr.com/5088/5339370353_6a1e9a109f_z.jpg" ><img alt="Restaurant in the Rain" src="http://farm6.static.flickr.com/5088/5339370353_6a1e9a109f_m.jpg"/></a></center>
<p></p>
]]></description>
<Point><coordinates>2.182811,41.383341</coordinates></Point>
</Placemark>
<Placemark><name>Last night in Spain</name>
<description><![CDATA[
<center><a href="http://farm6.static.flickr.com/5250/5339979060_632fd5f516_z.jpg" ><img alt="Last night in Spain" src="http://farm6.static.flickr.com/5250/5339979060_632fd5f516_m.jpg"/></a></center>
<p></p>
]]></description>
<Point><coordinates>2.173788,41.378527</coordinates></Point>
</Placemark></Document></kml>
